{"route": [{"halt": "-1", "no": 1, "schdep": "15:20", "distance": "0", "day": "1", "station": {"lng": 75.820349, "name": "JAIPUR", "lat": 26.916194, "code": "JP"}, "scharr": "SOURCE"}, {"halt": "3", "no": 2, "schdep": "15:30", "distance": "5", "day": "1", "station": {"lng": 75.7988459, "name": "GANDHINAGAR JPR", "lat": 26.873343, "code": "GADJ"}, "scharr": "15:27"}, {"halt": "2", "no": 3, "schdep": "16:17", "distance": "61", "day": "1", "station": {"lng": 76.4078679395087, "name": "DAUSA", "lat": 26.7852278, "code": "DO"}, "scharr": "16:15"}, {"halt": "2", "no": 4, "schdep": "16:42", "distance": "90", "day": "1", "station": {"lng": 76.5752695, "name": "BANDIKUI JN", "lat": 27.0457102, "code": "BKI"}, "scharr": "16:40"}, {"halt": "3", "no": 5, "schdep": "18:00", "distance": "150", "day": "1", "station": {"lng": 76.5, "name": "ALWAR JN.", "lat": 27.5, "code": "AWR"}, "scharr": "17:57"}, {"halt": "2", "no": 6, "schdep": "18:42", "distance": "208", "day": "1", "station": {"lng": 77.0898898, "name": "BRIJ NAGAR", "lat": 27.4394458, "code": "BINR"}, "scharr": "18:40"}, {"halt": "2", "no": 7, "schdep": "19:05", "distance": "232", "day": "1", "station": {"lng": 77.3257027, "name": "DEEG", "lat": 27.4773321, "code": "DEEG"}, "scharr": "19:03"}, {"halt": "2", "no": 8, "schdep": "19:22", "distance": "248", "day": "1", "station": {"lng": 77.6664906, "name": "GOVERDHAN", "lat": 27.0944106, "code": "GDO"}, "scharr": "19:20"}, {"halt": "15", "no": 9, "schdep": "20:20", "distance": "273", "day": "1", "station": {"lng": 77.6855554, "name": "MATHURA JN", "lat": 27.4955539, "code": "MTJ"}, "scharr": "20:05"}, {"halt": "20", "no": 10, "schdep": "21:30", "distance": "327", "day": "1", "station": {"lng": 78.0098161, "name": "AGRA CANTT", "lat": 27.1752554, "code": "AGC"}, "scharr": "21:10"}, {"halt": "2", "no": 11, "schdep": "21:42", "distance": "331", "day": "1", "station": {"lng": 77.9966706, "name": "RAJA KI MANDI", "lat": 27.194693, "code": "RKM"}, "scharr": "21:40"}, {"halt": "5", "no": 12, "schdep": "23:00", "distance": "355", "day": "1", "station": {"lng": 78.2371117, "name": "TUNDLA JN", "lat": 27.2132859, "code": "TDL"}, "scharr": "22:55"}, {"halt": "10", "no": 13, "schdep": "02:10", "distance": "586", "day": "2", "station": {"lng": 80.3506961, "name": "KANPUR CENTRAL", "lat": 26.4547354, "code": "CNB"}, "scharr": "02:00"}, {"halt": "2", "no": 14, "schdep": "03:10", "distance": "664", "day": "2", "station": {"lng": 80.75, "name": "FATEHPUR", "lat": 25.75, "code": "FTP"}, "scharr": "03:08"}, {"halt": "-1", "no": 15, "schdep": "DEST", "distance": "781", "day": "2", "station": {"lng": 81.896732069544, "name": "ALLAHABAD JN", "lat": 25.2859603, "code": "ALD"}, "scharr": "04:55"}], "debit": 1, "train": {"number": "12404", "classes": [{"name": "THIRD AC", "available": "Y", "code": "3A"}, {"name": "FIRST CLASS", "available": "N", "code": "FC"}, {"name": "AC CHAIR CAR", "available": "N", "code": "CC"}, {"name": "SECOND AC", "available": "Y", "code": "2A"}, {"name": "3rd AC ECONOMY", "available": "N", "code": "3E"}, {"name": "FIRST AC", "available": "Y", "code": "1A"}, {"name": "SLEEPER CLASS", "available": "Y", "code": "SL"}, {"name": "SECOND SEATING", "available": "Y", "code": "2S"}], "name": "JP-ALD EXP", "days": [{"runs": "Y", "code": "MON"}, {"runs": "Y", "code": "TUE"}, {"runs": "Y", "code": "WED"}, {"runs": "Y", "code": "THU"}, {"runs": "Y", "code": "FRI"}, {"runs": "Y", "code": "SAT"}, {"runs": "Y", "code": "SUN"}]}, "response_code": 200}