{"route": [{"station": {"lng": 75.820349, "lat": 26.916194, "code": "JP", "name": "JAIPUR"}, "distance": "0", "halt": "-1", "day": "1", "scharr": "SOURCE", "schdep": "15:20", "no": 1}, {"station": {"lng": 75.7988459, "lat": 26.873343, "code": "GADJ", "name": "GANDHINAGAR JPR"}, "distance": "5", "halt": "3", "day": "1", "scharr": "15:27", "schdep": "15:30", "no": 2}, {"station": {"lng": 76.4078679395087, "lat": 26.7852278, "code": "DO", "name": "DAUSA"}, "distance": "61", "halt": "2", "day": "1", "scharr": "16:15", "schdep": "16:17", "no": 3}, {"station": {"lng": 76.5752695, "lat": 27.0457102, "code": "BKI", "name": "BANDIKUI JN"}, "distance": "90", "halt": "2", "day": "1", "scharr": "16:40", "schdep": "16:42", "no": 4}, {"station": {"lng": 76.5, "lat": 27.5, "code": "AWR", "name": "ALWAR JN."}, "distance": "150", "halt": "3", "day": "1", "scharr": "17:57", "schdep": "18:00", "no": 5}, {"station": {"lng": 77.0898898, "lat": 27.4394458, "code": "BINR", "name": "BRIJ NAGAR"}, "distance": "208", "halt": "2", "day": "1", "scharr": "18:40", "schdep": "18:42", "no": 6}, {"station": {"lng": 77.3257027, "lat": 27.4773321, "code": "DEEG", "name": "DEEG"}, "distance": "232", "halt": "2", "day": "1", "scharr": "19:03", "schdep": "19:05", "no": 7}, {"station": {"lng": 77.6664906, "lat": 27.0944106, "code": "GDO", "name": "GOVERDHAN"}, "distance": "248", "halt": "2", "day": "1", "scharr": "19:20", "schdep": "19:22", "no": 8}, {"station": {"lng": 77.6855554, "lat": 27.4955539, "code": "MTJ", "name": "MATHURA JN"}, "distance": "273", "halt": "15", "day": "1", "scharr": "20:05", "schdep": "20:20", "no": 9}, {"station": {"lng": 78.0098161, "lat": 27.1752554, "code": "AGC", "name": "AGRA CANTT"}, "distance": "327", "halt": "20", "day": "1", "scharr": "21:10", "schdep": "21:30", "no": 10}, {"station": {"lng": 77.9966706, "lat": 27.194693, "code": "RKM", "name": "RAJA KI MANDI"}, "distance": "331", "halt": "2", "day": "1", "scharr": "21:40", "schdep": "21:42", "no": 11}, {"station": {"lng": 78.2371117, "lat": 27.2132859, "code": "TDL", "name": "TUNDLA JN"}, "distance": "355", "halt": "5", "day": "1", "scharr": "22:55", "schdep": "23:00", "no": 12}, {"station": {"lng": 80.3506961, "lat": 26.4547354, "code": "CNB", "name": "KANPUR CENTRAL"}, "distance": "586", "halt": "10", "day": "2", "scharr": "02:00", "schdep": "02:10", "no": 13}, {"station": {"lng": 80.75, "lat": 25.75, "code": "FTP", "name": "FATEHPUR"}, "distance": "664", "halt": "2", "day": "2", "scharr": "03:08", "schdep": "03:10", "no": 14}, {"station": {"lng": 81.896732069544, "lat": 25.2859603, "code": "ALD", "name": "ALLAHABAD JN"}, "distance": "781", "halt": "-1", "day": "2", "scharr": "04:55", "schdep": "DEST", "no": 15}], "response_code": 200, "debit": 1, "train": {"classes": [{"code": "SL", "name": "SLEEPER CLASS", "available": "Y"}, {"code": "FC", "name": "FIRST CLASS", "available": "N"}, {"code": "3E", "name": "3rd AC ECONOMY", "available": "N"}, {"code": "3A", "name": "THIRD AC", "available": "Y"}, {"code": "1A", "name": "FIRST AC", "available": "Y"}, {"code": "2S", "name": "SECOND SEATING", "available": "Y"}, {"code": "CC", "name": "AC CHAIR CAR", "available": "N"}, {"code": "2A", "name": "SECOND AC", "available": "Y"}], "number": "12404", "days": [{"runs": "Y", "code": "MON"}, {"runs": "Y", "code": "TUE"}, {"runs": "Y", "code": "WED"}, {"runs": "Y", "code": "THU"}, {"runs": "Y", "code": "FRI"}, {"runs": "Y", "code": "SAT"}, {"runs": "Y", "code": "SUN"}], "name": "JP-ALD EXP"}}